{
  "mapbox": {
    "accessToken": "pk.eyJ1IjoibWpob21lciIsImEiOiJjaXd3NmdmNHEwMGtvMnlvMGl3b3R5aGcwIn0.SqIPBcCP6-b9yjxCD32CNg",
    "styleURL": "mapbox://styles/mjhomer/cizjoenga006f2smnm9z52u8e"
  },
  "links": {
    "createAccount": "https://mullvad.net/account/create/",
    "purchase": "https://mullvad.net/account/",
    "faq": "https://mullvad.net/faq/",
    "guides": "https://mullvad.net/guides/",
    "supportEmail": "mailto:support@mullvad.net"
  },
  "defaultServer": "fastest",
  "servers": {
    "au.mullvad.net": {
      "address": "au.mullvad.net",
      "name": "Australia",
      "city": "Sydney",
      "country": "Australia"
    },
    "at.mullvad.net": {
      "address": "at.mullvad.net",
      "name": "Austria",
      "city": "Wien",
      "country": "Austria"
    },
    "be.mullvad.net": {
      "address": "be.mullvad.net",
      "name": "Belgium",
      "city": "Brussels",
      "country": "Belgium"
    },
    "bg.mullvad.net": {
      "address": "bg.mullvad.net",
      "name": "Bulgaria",
      "city": "Sofia",
      "country": "Bulgaria"
    },
    "ca.mullvad.net": {
      "address": "ca.mullvad.net",
      "name": "Canada",
      "city": "Toronto",
      "country": "Canada",
      "location": [
        45.42153,
        -75.697193
      ]
    },
    "cz.mullvad.net": {
      "address": "cz.mullvad.net",
      "name": "Czech Republic",
      "city": "Prague",
      "country": "Czech Republic"
    },
    "dk.mullvad.net": {
      "address": "dk.mullvad.net",
      "name": "Denmark",
      "city": "Copenhagen",
      "country": "Denmark",
      "location": [
        55.6760968,
        12.5683371
      ]
    },
    "fi.mullvad.net": {
      "address": "fi.mullvad.net",
      "name": "Finland",
      "city": "Helsinki",
      "country": "Finland"
    },
    "fr.mullvad.net": {
      "address": "fr.mullvad.net",
      "name": "France",
      "city": "Paris",
      "country": "France"
    },
    "de.mullvad.net": {
      "address": "de.mullvad.net",
      "name": "Germany",
      "city": "Berlin",
      "country": "Germany",
      "location": [
        52.52000659999999,
        13.404954
      ]
    },
    "hk.mullvad.net": {
      "address": "hk.mullvad.net",
      "name": "Hong Kong",
      "city": "Hong Kong",
      "country": "Hong Kong"
    },
    "hu.mullvad.net": {
      "address": "hu.mullvad.net",
      "name": "Hungary",
      "city": "Budapest",
      "country": "Hungary"
    },
    "il.mullvad.net": {
      "address": "il.mullvad.net",
      "name": "Israel",
      "city": "Petach-Tikva",
      "country": "Israel"
    },
    "it.mullvad.net": {
      "address": "it.mullvad.net",
      "name": "Italy",
      "city": "Milan",
      "country": "Italy"
    },
    "jp.mullvad.net": {
      "address": "jp.mullvad.net",
      "name": "Japan",
      "city": "Tokyo",
      "country": "Japan"
    },
    "nl.mullvad.net": {
      "address": "nl.mullvad.net",
      "name": "The Netherlands",
      "city": "Amsterdam",
      "country": "The Netherlands",
      "location": [
        52.3702157,
        4.895167900000001
      ]
    },
    "no.mullvad.net": {
      "address": "no.mullvad.net",
      "name": "Norway",
      "city": "Oslo",
      "country": "Norway",
      "location": [
        59.9138688,
        10.7522454
      ]
    },
    "pl.mullvad.net": {
      "address": "pl.mullvad.net",
      "name": "Poland",
      "city": "Warsaw",
      "country": "Poland"
    },
    "ro.mullvad.net": {
      "address": "ro.mullvad.net",
      "name": "Romania",
      "city": "Bucharest",
      "country": "Romania",
      "location": [
        44.4267674,
        26.1025384
      ]
    },
    "sg.mullvad.net": {
      "address": "sg.mullvad.net",
      "name": "Singapore",
      "city": "Singapore",
      "country": "Singapore",
      "location": [
        1.352083,
        103.819836
      ]
    },
    "es.mullvad.net": {
      "address": "es.mullvad.net",
      "name": "Spain",
      "city": "Madrid",
      "country": "Spain",
      "location": [
        40.4167754,
        -3.7037902
      ]
    },
    "se.mullvad.net": {
      "address": "se.mullvad.net",
      "name": "Sweden",
      "city": "Stockholm",
      "country": "Sweden",
      "location": [
        59.3293234,
        18.0685808
      ]
    },
    "ch.mullvad.net": {
      "address": "ch.mullvad.net",
      "name": "Switzerland",
      "city": "ZÃ¼rich",
      "country": "Switzerland",
      "location": [
        47.3768866,
        8.541694
      ]
    },
    "gb.mullvad.net": {
      "address": "gb.mullvad.net",
      "name": "United Kingdom",
      "city": "London",
      "country": "United Kingdom",
      "location": [
        51.5073509,
        -0.1277583
      ]
    },
    "us.mullvad.net": {
      "address": "us.mullvad.net",
      "name": "USA",
      "city": "New York",
      "country": "USA",
      "location": [
        40.7127837,
        -74.0059413
      ]
    }
  }
}
